{
  "cities": [
    {
      "cityName": "Lisbon",
      "country": "Portugal",
      "emoji": "ðŸ‡µðŸ‡¹",
      "date": "2027-10-31T15:59:59.138Z",
      "notes": "My favorite city so far!",
      "position": {
        "lat": 38.727881642324164,
        "lng": -9.140900099907554
      },
      "id": "73930385"
    },
    {
      "cityName": "Madrid",
      "country": "Spain",
      "emoji": "ðŸ‡ªðŸ‡¸",
      "date": "2027-07-15T08:22:53.976Z",
      "notes": "",
      "position": {
        "lat": 40.46635901755316,
        "lng": -3.7133789062500004
      },
      "id": "17806751"
    },
    {
      "id": "4061",
      "cityName": "Los Angeles",
      "country": "United States of America (the)",
      "emoji": "ðŸ‡ºðŸ‡¸",
      "date": "2024-09-30T23:46:08.124Z",
      "notes": "I went to this place to get my hair done...",
      "position": {
        "lat": "33.805296245508146",
        "lng": "-118.09444914657949"
      }
    },
    {
      "id": "ec5e",
      "cityName": "Tuba City",
      "country": "United States of America (the)",
      "emoji": "ðŸ‡ºðŸ‡¸",
      "date": "2024-09-30T23:46:58.610Z",
      "notes": "Tuba City has always been my to go Iced tea place...",
      "position": {
        "lat": "36.4116252568754",
        "lng": "-111.41373748920658"
      }
    },
    {
      "id": "88d3",
      "cityName": "Kalangala",
      "country": "Uganda",
      "emoji": "ðŸ‡ºðŸ‡¬",
      "date": "2024-09-30T23:52:04.930Z",
      "notes": "I loved the fish at this site...",
      "position": {
        "lat": "-0.3775597881880451",
        "lng": "32.09772763215022"
      }
    },
    {
      "id": "ad08",
      "cityName": "Madrid",
      "country": "Spain",
      "emoji": "ðŸ‡ªðŸ‡¸",
      "date": "2024-10-01T01:09:18.480Z",
      "notes": "",
      "position": {
        "lat": "40.44741449066753",
        "lng": "-3.689555549890858"
      }
    },
    {
      "id": "ce3c",
      "cityName": "Pompapiel",
      "country": "Australia",
      "emoji": "ðŸ‡¦ðŸ‡º",
      "date": "2024-10-01T02:11:21.619Z",
      "notes": "Oh i hate this place, so many reptiles.",
      "position": {
        "lat": "-36.38126402252643",
        "lng": "144.05016583461276"
      }
    },
    {
      "id": "826d",
      "cityName": "Los Angeles",
      "country": "United States of America (the)",
      "emoji": "ðŸ‡ºðŸ‡¸",
      "date": "2024-10-01T02:15:56.944Z",
      "notes": "",
      "position": {
        "lat": "34.643009978458714",
        "lng": "-118.0169594956512"
      }
    }
  ]
}